{"results":{"regions":[],"uri":"http://api.citygridmedia.com/search/places/v2/search/latlon?radius=5.0&has_offers=false&type=movietheater&format=json&page=1&rpp=20&histograms=false&lat=34.030000&lon=-118.280000&lat2=34.080000&lon2=-118.230000&region_type=box&publisher=test","did_you_mean":null,"page":1,"first_hit":1,"total_hits":10,"rpp":20,"query_id":null,"locations":[{"rating":null,"name":"Broadway Palace Theatre","fax_number":null,"address":{"city":"Los Angeles","postal_code":"90014","street":"630 S Broadway","state":"CA"},"latitude":34.046,"profile":"http://losangeles.citysearch.com/profile/36185142/los_angeles_ca/broadway_palace_theatre.html","has_video":false,"offers":null,"featured":false,"tags":[{"name":"Movie Theaters","id":157}],"tagline":null,"id":36185142,"user_review_count":0,"phone_number":"2134890646","has_offers":false,"website":null,"neighborhood":"Central LA, Downtown, Historic Core","public_id":"Broadway_Theatre-Los_Angeles-1","sample_categories":"Movie Theaters","longitude":-118.2523,"image":null,"expansion":{"uri":null,"count":null},"impression_id":"000b000000c7c923620ea24074a066e10e7e7e406a","distance":null},{"rating":7.0,"name":"La Live","fax_number":null,"address":{"city":"Los Angeles","postal_code":"90015","street":"800 W Olympic Blvd","state":"CA"},"latitude":34.0453,"profile":"http://losangeles.citysearch.com/profile/47493084/los_angeles_ca/la_live.html","has_video":false,"offers":null,"featured":false,"tags":[{"name":"Musical Entertainers","id":115},{"name":"Movie Theaters","id":157},{"name":"Bowling Alleys","id":4068},{"name":"Museums","id":96},{"name":"Restaurants","id":1722}],"tagline":null,"id":47493084,"user_review_count":3,"phone_number":"2137635483","has_offers":false,"website":null,"neighborhood":null,"public_id":"LA_LIVE-Los_Angeles-2","sample_categories":"Musical Entertainers, Movie Theaters, Bowling Alleys, Museums, Restaurants","longitude":-118.2655,"image":null,"expansion":{"uri":null,"count":null},"impression_id":"000b000000f6dbc2bd7713455a8ac16bf35caf2ce7","distance":null},{"rating":null,"name":"Downtown Independent","fax_number":null,"address":{"city":"Los Angeles","postal_code":"90012","street":"251 S Main St","state":"CA"},"latitude":34.050289,"profile":"http://losangeles.citysearch.com/profile/602365335/los_angeles_ca/downtown_independent.html","has_video":false,"offers":null,"featured":false,"tags":[{"name":"Movie Theaters","id":157}],"tagline":null,"id":602365335,"user_review_count":0,"phone_number":"2136171033","has_offers":false,"website":null,"neighborhood":"Central LA, Downtown, Historic Core","public_id":"DownTown_Independant-Los_Angeles-3","sample_categories":"Movie Theaters","longitude":-118.245216,"image":null,"expansion":{"uri":null,"count":null},"impression_id":"000b0000005353a8d58ba34789a6f69269c59d73f2","distance":null},{"rating":null,"name":"Regal Cinemas L.A. Live Stadium 14","fax_number":null,"address":{"city":"Los Angeles","postal_code":"90015","street":"1000 W Olympic Blvd","state":"CA"},"latitude":34.045913,"profile":"http://losangeles.citysearch.com/profile/603347662/los_angeles_ca/regal_cinemas_l_a_live_stadium_14.html","has_video":false,"offers":null,"featured":false,"tags":[{"name":"Movie Theaters","id":157}],"tagline":null,"id":603347662,"user_review_count":0,"phone_number":"2137636071","has_offers":false,"website":null,"neighborhood":"Central LA, South Park, Downtown","public_id":"Regals_cinemas-Central_LA-4","sample_categories":"Movie Theaters","longitude":-118.266888,"image":null,"expansion":{"uri":null,"count":null},"impression_id":"000b00000006fb1639dc3e403aa7a4671654dd51e7","distance":null},{"rating":null,"name":"Devil's Night Drive-In","fax_number":null,"address":{"city":"Los Angeles","postal_code":"90013","street":"240 W 4th St","state":"CA"},"latitude":34.049259,"profile":"http://losangeles.citysearch.com/profile/603758272/los_angeles_ca/devil_s_night_drive_in.html","has_video":false,"offers":null,"featured":false,"tags":[{"name":"Movie Theaters","id":157},{"name":"Drive-In Theaters","id":160}],"tagline":null,"id":603758272,"user_review_count":0,"phone_number":"3105551212","has_offers":false,"website":null,"neighborhood":"Central LA, Downtown, Historic Core","public_id":"Devil_night_drive_in-Central_LA-5","sample_categories":"Movie Theaters, Drive-In Theaters","longitude":-118.248968,"image":null,"expansion":{"uri":null,"count":null},"impression_id":"000b0000003ebb77f23ac84e32b82595b2a6c22c08","distance":null},{"rating":null,"name":"Roxie Theatre","fax_number":null,"address":{"city":"Los Angeles","postal_code":"90013","street":"518 S Broadway","state":"CA"},"latitude":34.047798,"profile":"http://losangeles.citysearch.com/profile/602365861/los_angeles_ca/roxie_theatre.html","has_video":false,"offers":null,"featured":false,"tags":[{"name":"Movie Theaters","id":157}],"tagline":null,"id":602365861,"user_review_count":0,"phone_number":"2132390951","has_offers":false,"website":null,"neighborhood":"Central LA, Downtown, Historic Core","public_id":"Roxie_theatre-Central_LA-6","sample_categories":"Movie Theaters","longitude":-118.250931,"image":null,"expansion":{"uri":null,"count":null},"impression_id":"000b0000007d5d4e83e8ca467eafec5b3b859df556","distance":null},{"rating":9.0,"name":"Laemmle's Grande 4-Plex","fax_number":null,"address":{"city":"Los Angeles","postal_code":"90071","street":"345 S Figueroa St","state":"CA"},"latitude":34.0545,"profile":"http://losangeles.citysearch.com/profile/11278208/los_angeles_ca/laemmle_s_grande_4_plex.html","has_video":false,"offers":null,"featured":false,"tags":[{"name":"Movie Theaters","id":157}],"tagline":null,"id":11278208,"user_review_count":3,"phone_number":"2136170268","has_offers":false,"website":null,"neighborhood":"Central LA, Downtown, New Downtown","public_id":"Laemmle-Central_LA-7","sample_categories":"Movie Theaters","longitude":-118.2552,"image":null,"expansion":{"uri":null,"count":null},"impression_id":"000b0000005f9e34ef8a9f43f6a3844f6261f2707a","distance":null},{"rating":null,"name":"Million Dollar Theater","fax_number":null,"address":{"city":"Los Angeles","postal_code":"90013","street":"307 S Broadway","state":"CA"},"latitude":34.050739,"profile":"http://losangeles.citysearch.com/profile/602365685/los_angeles_ca/million_dollar_theater.html","has_video":false,"offers":null,"featured":false,"tags":[{"name":"Movie Theaters","id":157}],"tagline":null,"id":602365685,"user_review_count":0,"phone_number":"2136173600","has_offers":false,"website":null,"neighborhood":"Central LA, Downtown, Historic Core","public_id":"Million_dollar_theatre-Central_LA-8","sample_categories":"Movie Theaters","longitude":-118.248222,"image":null,"expansion":{"uri":null,"count":null},"impression_id":"000b0000005b2760bfa71d4ea6b4664d4578308474","distance":null},{"rating":null,"name":"Reading International Inc","fax_number":null,"address":{"city":"Commerce","postal_code":"90040","street":"500 Citadel Dr Ste 300","state":"CA"},"latitude":34.0497,"profile":"http://losangeles.citysearch.com/profile/8946191/commerce_ca/reading_international_inc.html","has_video":false,"offers":null,"featured":false,"tags":[{"name":"Movie Theaters","id":157},{"name":"Business Management Consultants","id":364},{"name":"Marketing Consultants","id":432},{"name":"Real Estate Developers","id":3772},{"name":"Metal Door Manufacturers","id":2904}],"tagline":null,"id":8946191,"user_review_count":0,"phone_number":"2132352240","has_offers":false,"website":null,"neighborhood":"Central LA, Downtown, New Downtown","public_id":"Reading_international-Central_LA-9","sample_categories":"Movie Theaters, Business Management Consultants, Marketing Consultants, Real Estate Developers, Metal Door Manufacturers","longitude":-118.2559,"image":null,"expansion":{"uri":null,"count":null},"impression_id":"000b0000005124d9d484ed47feb6087c534ce6a163","distance":null},{"rating":null,"name":"Regal La Live Stadium 14","fax_number":null,"address":{"city":"Los Angeles","postal_code":"90015","street":"1000 W Olympic Blvd","state":"CA"},"latitude":34.04594,"profile":"http://losangeles.citysearch.com/profile/637677350/los_angeles_ca/regal_la_live_stadium_14.html","has_video":false,"offers":null,"featured":false,"tags":[{"name":"Movie Theaters","id":157}],"tagline":null,"id":637677350,"user_review_count":0,"phone_number":"2137636071","has_offers":false,"website":null,"neighborhood":"Central LA, Downtown, South Park","public_id":"Regal_Live-Central_LA-10","sample_categories":"Movie Theaters","longitude":-118.266922,"image":null,"expansion":{"uri":null,"count":null},"impression_id":"000b0000000bb6965ae9bd4e2395e754dc44bef305","distance":null}],"histograms":[],"last_hit":10}}